{
"type": "FeatureCollection",
"name": "origins_update",
"crs": { "type": "name", "properties": { "name": "urn:ogc:def:crs:OGC:1.3:CRS84" } },
"features": [
{ "type": "Feature", "properties": { "ID": 1, "Country": "Kazakhstan", "City": "Astana", "Distance_km": 972, "Airline": "Bek Air", "Price_tenge": " 25,584 KZT", "Price_USD": "$69", "Price_Euro": "61 €", "Zone": "Domestic", "Lat": 51.1605, "Long": 71.4704 }, "geometry": { "type": "Point", "coordinates": [ 71.4704, 51.1605 ] } },
{ "type": "Feature", "properties": { "ID": 2, "Country": "Kazakhstan", "City": "Astana", "Distance_km": 972, "Airline": "Scat", "Price_tenge": "36,556 KZT", "Price_USD": "$99", "Price_Euro": "87 €", "Zone": "Domestic", "Lat": 51.1605, "Long": 71.4704 }, "geometry": { "type": "Point", "coordinates": [ 71.4704, 51.1605 ] } },
{ "type": "Feature", "properties": { "ID": 3, "Country": "Kazakhstan", "City": "Astana", "Distance_km": 972, "Airline": "Qazaq Air", "Price_tenge": "37,917 KZT", "Price_USD": "$103", "Price_Euro": "90 €", "Zone": "Domestic", "Lat": 51.1605, "Long": 71.4704 }, "geometry": { "type": "Point", "coordinates": [ 71.4704, 51.1605 ] } },
{ "type": "Feature", "properties": { "ID": 4, "Country": "Kazakhstan", "City": "Astana", "Distance_km": 972, "Airline": "Air Astana", "Price_tenge": " 39,176 KZT", "Price_USD": "$106", "Price_Euro": "93 €", "Zone": "Domestic", "Lat": 51.1605, "Long": 71.4704 }, "geometry": { "type": "Point", "coordinates": [ 71.4704, 51.1605 ] } },
{ "type": "Feature", "properties": { "ID": 5, "Country": "Kazakhstan", "City": "Aktau", "Distance_km": 2066, "Airline": "Bek Air", "Price_tenge": "43,717 KZT", "Price_USD": "$119", "Price_Euro": "104 €", "Zone": "Domestic", "Lat": 43.6411, "Long": 51.1985 }, "geometry": { "type": "Point", "coordinates": [ 51.1985, 43.6411 ] } },
{ "type": "Feature", "properties": { "ID": 6, "Country": "Kazakhstan", "City": "Aktau", "Distance_km": 2066, "Airline": "Scat", "Price_tenge": "53,545 KZT", "Price_USD": "$145", "Price_Euro": "127 €", "Zone": "Domestic", "Lat": 43.6411, "Long": 51.1985 }, "geometry": { "type": "Point", "coordinates": [ 51.1985, 43.6411 ] } },
{ "type": "Feature", "properties": { "ID": 7, "Country": "Kazakhstan", "City": "Aktau", "Distance_km": 2066, "Airline": "Air Astana", "Price_tenge": "70,566 KZT", "Price_USD": "$191", "Price_Euro": "168 €", "Zone": "Domestic", "Lat": 43.6411, "Long": 51.1985 }, "geometry": { "type": "Point", "coordinates": [ 51.1985, 43.6411 ] } },
{ "type": "Feature", "properties": { "ID": 8, "Country": "Kazakhstan", "City": "Aktobe", "Distance_km": 1687, "Airline": "Bek Air", "Price_tenge": "38,055 KZT", "Price_USD": "$103", "Price_Euro": "90 €", "Zone": "Domestic", "Lat": 50.2839, "Long": 57.167 }, "geometry": { "type": "Point", "coordinates": [ 57.167, 50.2839 ] } },
{ "type": "Feature", "properties": { "ID": 9, "Country": "Kazakhstan", "City": "Aktobe", "Distance_km": 1687, "Airline": "Air Astana", "Price_tenge": "50,895 KZT", "Price_USD": "$138", "Price_Euro": "121 €", "Zone": "Domestic", "Lat": 50.2839, "Long": 57.167 }, "geometry": { "type": "Point", "coordinates": [ 57.167, 50.2839 ] } },
{ "type": "Feature", "properties": { "ID": 10, "Country": "Kazakhstan", "City": "Atyrau", "Distance_km": 1995, "Airline": "Bek Air", "Price_tenge": "49,955 KZT", "Price_USD": "$135", "Price_Euro": "119 €", "Zone": "Domestic", "Lat": 47.0945, "Long": 51.9238 }, "geometry": { "type": "Point", "coordinates": [ 51.9238, 47.0945 ] } },
{ "type": "Feature", "properties": { "ID": 11, "Country": "Kazakhstan", "City": "Atyrau", "Distance_km": 1995, "Airline": "Air Astana", "Price_tenge": "73,262 KZT", "Price_USD": "$199", "Price_Euro": "174 €", "Zone": "Domestic", "Lat": 47.0945, "Long": 51.9238 }, "geometry": { "type": "Point", "coordinates": [ 51.9238, 47.0945 ] } },
{ "type": "Feature", "properties": { "ID": 12, "Country": "Kazakhstan", "City": "Karaganda", "Distance_km": 787, "Airline": "Scat", "Price_tenge": "35,657 KZT", "Price_USD": "$97", "Price_Euro": "85 €", "Zone": "Domestic", "Lat": 49.8047, "Long": 73.1094 }, "geometry": { "type": "Point", "coordinates": [ 73.1094, 49.8047 ] } },
{ "type": "Feature", "properties": { "ID": 13, "Country": "Kazakhstan", "City": "Karaganda", "Distance_km": 787, "Airline": "Air Astana", "Price_tenge": "53,422 KZT", "Price_USD": "$145", "Price_Euro": "127 €", "Zone": "Domestic", "Lat": 49.8047, "Long": 73.1094 }, "geometry": { "type": "Point", "coordinates": [ 73.1094, 49.8047 ] } },
{ "type": "Feature", "properties": { "ID": 14, "Country": "Kazakhstan", "City": "Kokshetau", "Distance_km": 1248, "Airline": "Scat", "Price_tenge": "50,000 KZT", "Price_USD": "$136", "Price_Euro": "119 €", "Zone": "Domestic", "Lat": 53.2948, "Long": 69.4048 }, "geometry": { "type": "Point", "coordinates": [ 69.4048, 53.2948 ] } },
{ "type": "Feature", "properties": { "ID": 15, "Country": "Kazakhstan", "City": "Kostanay", "Distance_km": 1478, "Airline": "Scat", "Price_tenge": "40,166 KZT", "Price_USD": "$109", "Price_Euro": "95 €", "Zone": "Domestic", "Lat": 53.2198, "Long": 63.6354 }, "geometry": { "type": "Point", "coordinates": [ 63.6354, 53.2198 ] } },
{ "type": "Feature", "properties": { "ID": 16, "Country": "Kazakhstan", "City": "Kyzylorda", "Distance_km": 927, "Airline": "Air Astana", "Price_tenge": "34,336 KZT", "Price_USD": "$93", "Price_Euro": "82 €", "Zone": "Domestic", "Lat": 44.8488, "Long": 65.4823 }, "geometry": { "type": "Point", "coordinates": [ 65.4823, 44.8488 ] } },
{ "type": "Feature", "properties": { "ID": 17, "Country": "Kazakhstan", "City": "Pavlodar", "Distance_km": 1009, "Airline": "Bek Air", "Price_tenge": "33,609 KZT", "Price_USD": "$91", "Price_Euro": "80 €", "Zone": "Domestic", "Lat": 52.2873, "Long": 76.9674 }, "geometry": { "type": "Point", "coordinates": [ 76.9674, 52.2873 ] } },
{ "type": "Feature", "properties": { "ID": 18, "Country": "Kazakhstan", "City": "Pavlodar", "Distance_km": 1009, "Airline": "Air Astana", "Price_tenge": "46,805 KZT", "Price_USD": "$127", "Price_Euro": "111 €", "Zone": "Domestic", "Lat": 52.2873, "Long": 76.9674 }, "geometry": { "type": "Point", "coordinates": [ 76.9674, 52.2873 ] } },
{ "type": "Feature", "properties": { "ID": 19, "Country": "Kazakhstan", "City": "Uralsk", "Distance_km": 2107, "Airline": "Bek Air", "Price_tenge": "42,355 KZT", "Price_USD": "$115", "Price_Euro": "100 €", "Zone": "Domestic", "Lat": 51.2278, "Long": 51.3865 }, "geometry": { "type": "Point", "coordinates": [ 51.3865, 51.2278 ] } },
{ "type": "Feature", "properties": { "ID": 20, "Country": "Kazakhstan", "City": "Uralsk", "Distance_km": 2107, "Airline": "Air Astana", "Price_tenge": "88,248 KZT", "Price_USD": "$239", "Price_Euro": "210 €", "Zone": "Domestic", "Lat": 51.2278, "Long": 51.3865 }, "geometry": { "type": "Point", "coordinates": [ 51.3865, 51.2278 ] } },
{ "type": "Feature", "properties": { "ID": 21, "Country": "Kazakhstan", "City": "Ust-Kamenogorsk", "Distance_km": 870, "Airline": "Bek Air", "Price_tenge": "33,650 KZT", "Price_USD": "$91", "Price_Euro": "80 €", "Zone": "Domestic", "Lat": 49.9749, "Long": 82.6017 }, "geometry": { "type": "Point", "coordinates": [ 82.6017, 49.9749 ] } },
{ "type": "Feature", "properties": { "ID": 22, "Country": "Kazakhstan", "City": "Ust-Kamenogorsk", "Distance_km": 870, "Airline": "Scat", "Price_tenge": "32,371 KZT", "Price_USD": "$88", "Price_Euro": "77 €", "Zone": "Domestic", "Lat": 49.9749, "Long": 82.6017 }, "geometry": { "type": "Point", "coordinates": [ 82.6017, 49.9749 ] } },
{ "type": "Feature", "properties": { "ID": 23, "Country": "Kazakhstan", "City": "Ust-Kamenogorsk", "Distance_km": 870, "Airline": "Air Astana", "Price_tenge": "46,987 KZT", "Price_USD": "$127", "Price_Euro": "112 €", "Zone": "Domestic", "Lat": 49.9749, "Long": 82.6017 }, "geometry": { "type": "Point", "coordinates": [ 82.6017, 49.9749 ] } },
{ "type": "Feature", "properties": { "ID": 24, "Country": "Kazakhstan", "City": "Shymkent", "Distance_km": 601, "Airline": "Scat", "Price_tenge": "34,098 KZT", "Price_USD": "$92", "Price_Euro": "81 €", "Zone": "Domestic", "Lat": 42.3417, "Long": 69.5901 }, "geometry": { "type": "Point", "coordinates": [ 69.5901, 42.3417 ] } },
{ "type": "Feature", "properties": { "ID": 25, "Country": "Kazakhstan", "City": "Shymkent", "Distance_km": 601, "Airline": "Qazaq Air", "Price_tenge": "35,678 KZT", "Price_USD": "$96", "Price_Euro": "85 €", "Zone": "Domestic", "Lat": 42.3417, "Long": 69.5901 }, "geometry": { "type": "Point", "coordinates": [ 69.5901, 42.3417 ] } },
{ "type": "Feature", "properties": { "ID": 26, "Country": "Kazakhstan", "City": "Shymkent", "Distance_km": 601, "Airline": "Air Astana", "Price_tenge": "43,463 KZT", "Price_USD": "$118", "Price_Euro": "103 €", "Zone": "Domestic", "Lat": 42.3417, "Long": 69.5901 }, "geometry": { "type": "Point", "coordinates": [ 69.5901, 42.3417 ] } },
{ "type": "Feature", "properties": { "ID": 27, "Country": "Azerbaijan", "City": "Baku", "Distance_km": 2251, "Airline": "Air Astana", "Price_tenge": "112,132 KZT", "Price_USD": "$304", "Price_Euro": "266 €", "Zone": "CIS", "Lat": 40.4093, "Long": 49.8671 }, "geometry": { "type": "Point", "coordinates": [ 49.8671, 40.4093 ] } },
{ "type": "Feature", "properties": { "ID": 28, "Country": "Belarus", "City": "Minsk", "Distance_km": 3735, "Airline": "Belavia", "Price_tenge": "97,652 KZT", "Price_USD": "$265", "Price_Euro": "232 €", "Zone": "CIS", "Lat": 53.9045, "Long": 27.5615 }, "geometry": { "type": "Point", "coordinates": [ 27.5615, 53.9045 ] } },
{ "type": "Feature", "properties": { "ID": 29, "Country": "Georgia", "City": "Tbilisi", "Distance_km": 2619, "Airline": "Air Astana", "Price_tenge": "112,285 KZT", "Price_USD": "$304", "Price_Euro": "267 €", "Zone": "CIS", "Lat": 41.7151, "Long": 44.8271 }, "geometry": { "type": "Point", "coordinates": [ 44.8271, 41.7151 ] } },
{ "type": "Feature", "properties": { "ID": 30, "Country": "Kyrgyzstan", "City": "Bishkek", "Distance_km": 190, "Airline": "Air Astana", "Price_tenge": "48,641 KZT", "Price_USD": "$132", "Price_Euro": "116 €", "Zone": "CIS", "Lat": 42.8746, "Long": 74.5698 }, "geometry": { "type": "Point", "coordinates": [ 74.5698, 42.8746 ] } },
{ "type": "Feature", "properties": { "ID": 31, "Country": "Russia", "City": "Novosibirsk", "Distance_km": 1384, "Airline": "S7 Airlines", "Price_tenge": "80,038 KZT", "Price_USD": "$217", "Price_Euro": "190 €", "Zone": "CIS", "Lat": 55.0084, "Long": 82.9357 }, "geometry": { "type": "Point", "coordinates": [ 82.9357, 55.0084 ] } },
{ "type": "Feature", "properties": { "ID": 32, "Country": "Russia", "City": "Moscow", "Distance_km": 3106, "Airline": "Aeroflot", "Price_tenge": "133,674 KZT", "Price_USD": "$362", "Price_Euro": "318 €", "Zone": "CIS", "Lat": 55.7558, "Long": 37.6173 }, "geometry": { "type": "Point", "coordinates": [ 37.6173, 55.7558 ] } },
{ "type": "Feature", "properties": { "ID": 33, "Country": "Russia", "City": "Moscow", "Distance_km": 3106, "Airline": "Air Astana", "Price_tenge": "136,700 KZT", "Price_USD": "$371", "Price_Euro": "325 €", "Zone": "CIS", "Lat": 55.7558, "Long": 37.6173 }, "geometry": { "type": "Point", "coordinates": [ 37.6173, 55.7558 ] } },
{ "type": "Feature", "properties": { "ID": 34, "Country": "Russia", "City": "Saint Petersburg", "Distance_km": 3612, "Airline": "Air Astana", "Price_tenge": "139,759 KZT", "Price_USD": "$379", "Price_Euro": "332 €", "Zone": "CIS", "Lat": 59.9343, "Long": 30.3351 }, "geometry": { "type": "Point", "coordinates": [ 30.3351, 59.9343 ] } },
{ "type": "Feature", "properties": { "ID": 35, "Country": "Tajikistan", "City": "Dushanbe", "Distance_km": 854, "Airline": "Air Astana", "Price_tenge": "78,768 KZT", "Price_USD": "$214", "Price_Euro": "187 €", "Zone": "CIS", "Lat": 38.5598, "Long": 68.787 }, "geometry": { "type": "Point", "coordinates": [ 68.787, 38.5598 ] } },
{ "type": "Feature", "properties": { "ID": 36, "Country": "Turkmenistan", "City": "Ashgabat", "Distance_km": 1668, "Airline": "Turkmenistan Airlines", "Price_tenge": "151,154 KZT", "Price_USD": "$410", "Price_Euro": "359 €", "Zone": "CIS", "Lat": 37.9601, "Long": 58.3261 }, "geometry": { "type": "Point", "coordinates": [ 58.3261, 37.9601 ] } },
{ "type": "Feature", "properties": { "ID": 37, "Country": "Uzbekistan", "City": "Tashkent", "Distance_km": 662, "Airline": "Air Astana", "Price_tenge": "75,664 KZT", "Price_USD": "$205", "Price_Euro": "180 €", "Zone": "CIS", "Lat": 41.2995, "Long": 69.2401 }, "geometry": { "type": "Point", "coordinates": [ 69.2401, 41.2995 ] } },
{ "type": "Feature", "properties": { "ID": 38, "Country": "Uzbekistan", "City": "Tashkent", "Distance_km": 662, "Airline": "Uzbekistan Airways", "Price_tenge": "140,750 KZT", "Price_USD": "$382", "Price_Euro": "334 €", "Zone": "CIS", "Lat": 41.2995, "Long": 69.2401 }, "geometry": { "type": "Point", "coordinates": [ 69.2401, 41.2995 ] } },
{ "type": "Feature", "properties": { "ID": 39, "Country": "Ukraine", "City": "Kiev", "Distance_km": 3557, "Airline": "Air Astana", "Price_tenge": "113,305 KZT", "Price_USD": "$307", "Price_Euro": "269 €", "Zone": "CIS", "Lat": 50.45466, "Long": 30.5238 }, "geometry": { "type": "Point", "coordinates": [ 30.5238, 50.45466 ] } },
{ "type": "Feature", "properties": { "ID": 40, "Country": "Ukraine", "City": "Kiev", "Distance_km": 3557, "Airline": "МАУ", "Price_tenge": "112,778 KZT", "Price_USD": "$306", "Price_Euro": "268 €", "Zone": "CIS", "Lat": 50.45466, "Long": 30.5238 }, "geometry": { "type": "Point", "coordinates": [ 30.5238, 50.45466 ] } },
{ "type": "Feature", "properties": { "ID": 41, "Country": "Germany", "City": "Frankfurt", "Distance_km": 5079, "Airline": "Air Astana", "Price_tenge": "189,098 KZT", "Price_USD": "$513", "Price_Euro": "449 €", "Zone": "Europe",  "Lat": 50.1109, "Long": 8.6821 }, "geometry": { "type": "Point", "coordinates": [ 8.6821, 50.1109 ] } },
{ "type": "Feature", "properties": { "ID": 42, "Country": "Germany", "City": "Frankfurt", "Distance_km": 5079, "Airline": "Lufthansa", "Price_tenge": "193,235 KZT", "Price_USD": "$519", "Price_Euro": "455 €", "Zone": "Europe",  "Lat": 50.1109, "Long": 8.6821 }, "geometry": { "type": "Point", "coordinates": [ 8.6821, 50.1109 ] } },
{ "type": "Feature", "properties": { "ID": 43, "Country": "Thailand", "City": "Bangkok", "Distance_km": 3984, "Airline": "Air Astana", "Price_tenge": "196,510 KZT", "Price_USD": "$533", "Price_Euro": "467 €", "Zone": "Asia", "Lat": 13.7563, "Long": 100.5018 }, "geometry": { "type": "Point", "coordinates": [ 100.5018, 13.7563 ] } },
{ "type": "Feature", "properties": { "ID": 44, "Country": "China", "City": "Hong Kong", "Distance_km": 4134, "Airline": "Air Astana", "Price_tenge": "204,130 KZT", "Price_USD": "$553", "Price_Euro": "485 €", "Zone": "Asia", "Lat": 22.3964, "Long": 114.1095 }, "geometry": { "type": "Point", "coordinates": [ 114.1095, 22.3964 ] } },
{ "type": "Feature", "properties": { "ID": 45, "Country": "China", "City": "Beijing", "Distance_km": 3284, "Airline": "Air Astana", "Price_tenge": "193,020 KZT", "Price_USD": "$523", "Price_Euro": "458 €", "Zone": "Asia", "Lat": 39.9042, "Long": 116.4074 }, "geometry": { "type": "Point", "coordinates": [ 116.4074, 39.9042 ] } },
{ "type": "Feature", "properties": { "ID": 46, "Country": "China", "City": "Xian", "Distance_km": 2933, "Airline": "SCAT", "Price_tenge": "115,643 KZT", "Price_USD": "$313", "Price_Euro": "275 €", "Zone": "Asia", "Lat": 34.3416, "Long": 108.9398 }, "geometry": { "type": "Point", "coordinates": [ 108.9398, 34.3416 ] } },
{ "type": "Feature", "properties": { "ID": 47, "Country": "China", "City": "Urumqi", "Distance_km": 871, "Airline": "Air Astana", "Price_tenge": "84,637 KZT", "Price_USD": "$229", "Price_Euro": "201 €", "Zone": "Asia", "Lat": 43.8256, "Long": 87.6168 }, "geometry": { "type": "Point", "coordinates": [ 87.6168, 43.8256 ] } },
{ "type": "Feature", "properties": { "ID": 48, "Country": "China", "City": "Urumqi", "Distance_km": 871, "Airline": "China Southern Air", "Price_tenge": "113,313 KZT", "Price_USD": "$307", "Price_Euro": "269 €", "Zone": "Asia", "Lat": 43.8256, "Long": 87.6168 }, "geometry": { "type": "Point", "coordinates": [ 87.6168, 43.8256 ] } },
{ "type": "Feature", "properties": { "ID": 49, "Country": "Malaysia", "City": "Kuala Lumpur", "Distance_km": 5092, "Airline": "Air Astana", "Price_tenge": "202,100 KZT", "Price_USD": "$547", "Price_Euro": "480 €", "Zone": "Asia", "Lat": 3.139, "Long": 101.6869 }, "geometry": { "type": "Point", "coordinates": [ 101.6869, 3.139 ] } },
{ "type": "Feature", "properties": { "ID": 50, "Country": "South Korea", "City": "Seoul", "Distance_km": 4232, "Airline": "Air Astana", "Price_tenge": "220,223 KZT", "Price_USD": "$597", "Price_Euro": "523 €", "Zone": "Asia", "Lat": 37.5665, "Long": 126.978 }, "geometry": { "type": "Point", "coordinates": [ 126.978, 37.5665 ] } },
{ "type": "Feature", "properties": { "ID": 51, "Country": "Vietnam", "City": "Ho Chi Minh", "Distance_km": 4611, "Airline": "Air Astana", "Price_tenge": "289,174 KZT", "Price_USD": "$784", "Price_Euro": "687 €", "Zone": "Asia", "Lat": 10.8231, "Long": 106.6297 }, "geometry": { "type": "Point", "coordinates": [ 106.6297, 10.8231 ] } },
{ "type": "Feature", "properties": { "ID": 52, "Country": "Afghanistan", "City": "Kabul", "Distance_km": 1169, "Airline": "Kam Air", "Price_tenge": "137,825 KZT", "Price_USD": "$370", "Price_Euro": "324 €", "Zone": "Other", "Lat": 34.5553, "Long": 69.2075 }, "geometry": { "type": "Point", "coordinates": [ 69.2075, 34.5553 ] } },
{ "type": "Feature", "properties": { "ID": 53, "Country": "UAE", "City": "Dubai", "Distance_km": 2806, "Airline": "Air Astana", "Price_tenge": "122,138 KZT", "Price_USD": "$331", "Price_Euro": "290 €", "Zone": "Other", "Lat": 25.2048, "Long": 55.2708 }, "geometry": { "type": "Point", "coordinates": [ 55.2708, 25.2048 ] } },
{ "type": "Feature", "properties": { "ID": 54, "Country": "UAE", "City": "Dubai", "Distance_km": 2806, "Airline": "Fly Dubai", "Price_tenge": "126,311 KZT", "Price_USD": "$342", "Price_Euro": "300 €", "Zone": "Other", "Lat": 25.2048, "Long": 55.2708 }, "geometry": { "type": "Point", "coordinates": [ 55.2708, 25.2048 ] } },
{ "type": "Feature", "properties": { "ID": 55, "Country": "UAE", "City": "Sharjah", "Distance_km": 2785, "Airline": "Air Arabia", "Price_tenge": "104,748 KZT", "Price_USD": "$284", "Price_Euro": "249 €", "Zone": "Other", "Lat": 25.3463, "Long": 55.4209 }, "geometry": { "type": "Point", "coordinates": [ 55.4209, 25.3463 ] } },
{ "type": "Feature", "properties": { "ID": 56, "Country": "India", "City": "Delhi", "Distance_km": 1616, "Airline": "Air Astana", "Price_tenge": "102,892 KZT", "Price_USD": "$279", "Price_Euro": "245 €", "Zone": "Other", "Lat": 28.7041, "Long": 77.1025 }, "geometry": { "type": "Point", "coordinates": [ 77.1025, 28.7041 ] } },
{ "type": "Feature", "properties": { "ID": 57, "Country": "Turkey", "City": "Antalya", "Distance_km": 3943, "Airline": "Air Astana", "Price_tenge": "174,810 KZT", "Price_USD": "$474", "Price_Euro": "415 €", "Zone": "Other", "Lat": 36.8969, "Long": 30.7133 }, "geometry": { "type": "Point", "coordinates": [ 30.7133, 36.8969 ] } },
{ "type": "Feature", "properties": { "ID": 58, "Country": "Turkey", "City": "Istanbul", "Distance_km": 3907, "Airline": "Air Astana", "Price_tenge": "136,391 KZT", "Price_USD": "$370", "Price_Euro": "324 €", "Zone": "Other", "Lat": 41.0082, "Long": 28.9784 }, "geometry": { "type": "Point", "coordinates": [ 28.9784, 41.0082 ] } },
{ "type": "Feature", "properties": { "ID": 59, "Country": "Turkey", "City": "Istanbul", "Distance_km": 3907, "Airline": "Turkish Airlines", "Price_tenge": "135,497 KZT", "Price_USD": "$367", "Price_Euro": "322 €", "Zone": "Other", "Lat": 41.0082, "Long": 28.9784 }, "geometry": { "type": "Point", "coordinates": [ 28.9784, 41.0082 ] } },
{ "type": "Feature", "properties": { "ID": 60, "Country": "Turkey", "City": "Istanbul", "Distance_km": 3907, "Airline": "Pegasus Airlines", "Price_tenge": "108,087 KZT", "Price_USD": "$293", "Price_Euro": "357 €", "Zone": "Other", "Lat": 41.0082, "Long": 28.9784 }, "geometry": { "type": "Point", "coordinates": [ 28.9784, 41.0082 ] } }
]
}
